Nummer,Namn,Beskrivning,Behöver,Latitud,Longitud,Involverade,Hur många människor berörs,Mejl,Telefonnummer,Hemsida,Facebook,Instagram,Twitter,Annan länk
1,Blivande,"Producerar utrustning till sjukvården, t.ex. plastförkläden","Personer som vill hjälpa till och åldersbeständig plast (ej återvunnen), 0.035 - 0.1 mm tjock, 2000 mm bred (gärna på dubbelvikt på 1m-rulle).",59.343006,18.116554,>2,,hampus@blivande.com,,https://www.facebook.com/Blivande/,https://www.facebook.com/Blivande/,,,
2,Hillsong servicepool,Hjälp för personer som av någon anledning sitter i karantän och inte kan eller vågar gå ut.,Volontärer,59.2753,15.2134,100,alla i karantän,,,https://hillsong.com/sv/sweden/servicepool/,,,,
3,Hillsong servicepool,Hjälp för personer som av någon anledning sitter i karantän och inte kan eller vågar gå ut.,Volontärer,59.3293,18.0686,,,,,https://hillsong.com/sv/sweden/servicepool/,,,,
4,Hillsong servicepool,Hjälp för personer som av någon anledning sitter i karantän och inte kan eller vågar gå ut.,Volontärer,57.7826,14.1618,,,,,https://hillsong.com/sv/sweden/servicepool/,,,,
5,Hillsong servicepool,Hjälp för personer som av någon anledning sitter i karantän och inte kan eller vågar gå ut.,Volontärer,57.7089,11.9746,,,,,https://hillsong.com/sv/sweden/servicepool/,,,,
6,3DVerkstan,Tar fram och distribuerar produkter till sjukvården genom 3D-printteknik.,,59.3505491,18.0677466,,,info@3dverkstan.se,,https://3dverkstan.se/protective-visor/,,,,
7,Vårdoptimeraren,Interaktiv hemsida med förslag på optimalt sätt att flytta IVA-patienter (eller resurser) mellan regioner.,Faktiskt antal IVA-patienter per region och dag. Behöver också riktlinjer kring patienttransporter.,57.6960845,11.9575318,5,"Patienter inlagda på IVA (eller alla som kan bli smittade och inlagda), sjukvårdspersonal",victor.backman@advectas.se,732316350,http://vårdoptimeraren.se/,https://www.facebook.com/AdvectasAB/,https://www.instagram.com/advectas/,,https://www.linkedin.com/company/advectas-ab/
8,Giddir AB,,,,,6,Samtliga medborgare,,,,,,,
9,WeCare,WeCare eHealth - Symptoms Tracker & Shield,,,,,,info@wecareall.eu,,www.wecareall.eu,https://www.facebook.com/wecareworld/,https://www.instagram.com/wecareall/,,
